{
  "data": [
    {
      "latitude": 34.05513,
      "longitude": -118.25703,
      "type": "locality",
      "name": "Los Angeles",
      "number": null,
      "postal_code": null,
      "street": null,
      "confidence": 1,
      "region": "California",
      "region_code": "CA",
      "county": "Los Angeles County",
      "locality": "Los Angeles",
      "administrative_area": null,
      "neighbourhood": null,
      "country": "United States",
      "country_code": "USA",
      "continent": "North America",
      "label": "Los Angeles, CA, USA"
    },
    {
      "latitude": -37.46612,
      "longitude": -72.334203,
      "type": "locality",
      "name": "Los Angeles",
      "number": null,
      "postal_code": null,
      "street": null,
      "confidence": 1,
      "region": "Del Bio-Bio",
      "region_code": "BI",
      "county": "Biobío",
      "locality": "Los Angeles",
      "administrative_area": null,
      "neighbourhood": null,
      "country": "Chile",
      "country_code": "CHL",
      "continent": "South America",
      "label": "Los Angeles, BI, Chile"
    },
    {
      "latitude": 34.344417,
      "longitude": -118.189475,
      "type": "county",
      "name": "Los Angeles County",
      "number": null,
      "postal_code": null,
      "street": null,
      "confidence": 0.4,
      "region": "California",
      "region_code": "CA",
      "county": "Los Angeles County",
      "locality": null,
      "administrative_area": null,
      "neighbourhood": null,
      "country": "United States",
      "country_code": "USA",
      "continent": "North America",
      "label": "Los Angeles County, CA, USA"
    },
    {
      "latitude": 6.266684,
      "longitude": -75.569261,
      "type": "neighbourhood",
      "name": "Los Ángeles",
      "number": null,
      "postal_code": null,
      "street": null,
      "confidence": 0.6,
      "region": "Antioquia",
      "region_code": "AN",
      "county": "Medellín",
      "locality": null,
      "administrative_area": null,
      "neighbourhood": "Los Ángeles",
      "country": "Colombia",
      "country_code": "COL",
      "continent": "South America",
      "label": "Los Ángeles, AN, Colombia"
    },
    {
      "latitude": 25.86208,
      "longitude": -99.66948,
      "type": "locality",
      "name": "Los Angeles",
      "number": null,
      "postal_code": null,
      "street": null,
      "confidence": 1,
      "region": "Nuevo León",
      "region_code": "NLE",
      "county": "Los Ramones",
      "locality": "Los Angeles",
      "administrative_area": null,
      "neighbourhood": null,
      "country": "Mexico",
      "country_code": "MEX",
      "continent": "North America",
      "label": "Los Angeles, NLE, Mexico"
    },
    {
      "latitude": 28.91177,
      "longitude": -110.84993,
      "type": "locality",
      "name": "Los Angeles",
      "number": null,
      "postal_code": null,
      "street": null,
      "confidence": 1,
      "region": "Sonora",
      "region_code": "SON",
      "county": "La Colorada",
      "locality": "Los Angeles",
      "administrative_area": null,
      "neighbourhood": null,
      "country": "Mexico",
      "country_code": "MEX",
      "continent": "North America",
      "label": "Los Angeles, SON, Mexico"
    },
    {
      "latitude": 25.45894,
      "longitude": -100.72598,
      "type": "locality",
      "name": "Los Angeles",
      "number": null,
      "postal_code": null,
      "street": null,
      "confidence": 1,
      "region": "Coahuila de Zaragoza",
      "region_code": "COA",
      "county": "Arteaga",
      "locality": "Los Angeles",
      "administrative_area": null,
      "neighbourhood": null,
      "country": "Mexico",
      "country_code": "MEX",
      "continent": "North America",
      "label": "Los Angeles, COA, Mexico"
    },
    {
      "latitude": 1.67273,
      "longitude": -75.92985,
      "type": "locality",
      "name": "Los Angeles",
      "number": null,
      "postal_code": null,
      "street": null,
      "confidence": 1,
      "region": "Caquetá",
      "region_code": "CQ",
      "county": "Belén De Los Andaquíes",
      "locality": "Los Angeles",
      "administrative_area": null,
      "neighbourhood": null,
      "country": "Colombia",
      "country_code": "COL",
      "continent": "South America",
      "label": "Los Angeles, CQ, Colombia"
    },
    {
      "latitude": 24.15,
      "longitude": -99.91667,
      "type": "locality",
      "name": "Los Angeles",
      "number": null,
      "postal_code": null,
      "street": null,
      "confidence": 1,
      "region": "Nuevo León",
      "region_code": "NLE",
      "county": "Aramberri",
      "locality": "Los Angeles",
      "administrative_area": null,
      "neighbourhood": null,
      "country": "Mexico",
      "country_code": "MEX",
      "continent": "North America",
      "label": "Los Angeles, NLE, Mexico"
    },
    {
      "latitude": 30.59963,
      "longitude": -110.93529,
      "type": "locality",
      "name": "Los Angeles",
      "number": null,
      "postal_code": null,
      "street": null,
      "confidence": 1,
      "region": "Sonora",
      "region_code": "SON",
      "county": "Magdalena",
      "locality": "Los Angeles",
      "administrative_area": null,
      "neighbourhood": null,
      "country": "Mexico",
      "country_code": "MEX",
      "continent": "North America",
      "label": "Los Angeles, SON, Mexico"
    }
  ]
}
